[
  {
    "id": 1,
    "name": "Paris",
    "spots": [
      {
        "id": 114,
        "name": "Eiffel Tower",
        "latitude": 48.8584,
        "longitude": 2.2945
      },
      {
        "id": 1,
        "name": "Arc de Triomphe",
        "latitude": 48.8738,
        "longitude": 2.295
      },
      {
        "id": 2,
        "name": "Louvre Museum",
        "latitude": 48.8606,
        "longitude": 2.3376
      },
      {
        "id": 3,
        "name": "Notre Dame Cathedral",
        "latitude": 48.853,
        "longitude": 2.3499
      },
      {
        "id": 4,
        "name": "Palace of Versailles",
        "latitude": 48.8049,
        "longitude": 2.1204
      }
    ]
  },
  {
    "id": "2",
    "name": "New York City",
    "spots": [
      {
        "id": 33,
        "name": "Empire State Building",
        "latitude": 40.7484,
        "longitude": -73.9857
      },
      {
        "id": 12,
        "name": "Statue of Liberty",
        "latitude": 40.6892,
        "longitude": -74.0445
      },
      {
        "id": 22,
        "name": "Central Park",
        "latitude": 40.7829,
        "longitude": -73.9654
      },
      {
        "id": 32,
        "name": "Times Square",
        "latitude": 40.758,
        "longitude": -73.9855
      },
      {
        "id": 42,
        "name": "One World Trade Center",
        "latitude": 40.7127,
        "longitude": -74.0134
      }
    ]
  },
  {
    "id": "3",
    "name": "Rome",
    "spots": [
      {
        "id": 55,
        "name": "Colosseum",
        "latitude": 41.8902,
        "longitude": 12.4922
      },
      {
        "id": 13,
        "name": "Trevi Fountain",
        "latitude": 41.9009,
        "longitude": 12.4833
      },
      {
        "id": 23,
        "name": "Pantheon",
        "latitude": 41.8986,
        "longitude": 12.4769
      },
      {
        "id": 33,
        "name": "St.Peters Basilica",
        "latitude": 41.9022,
        "longitude": 12.4533
      },
      {
        "id": 43,
        "name": "Vatican Museums",
        "latitude": 41.9065,
        "longitude": 12.4534
      }
    ]
  },
  {
    "id": "4",
    "name": "Beijing",
    "spots": [
      {
        "id": "44",
        "name": "Great Wall of China",
        "latitude": 40.4319,
        "longitude": 116.5704
      },
      {
        "id": 44,
        "name": "Forbidden City",
        "latitude": 39.9163,
        "longitude": 116.3972
      },
      {
        "id": 24,
        "name": "Temple of Heaven",
        "latitude": 39.8822,
        "longitude": 116.4066
      }
    ]
  },
  {
    "id": "5",
    "name": "Sweden",
    "spots": [
      {
        "id": "55",
        "name": "Ice Hotel",
        "latitude": 67.8516,
        "longitude": 20.5954
      },
      {
        "id": 15,
        "name": "Gamla Stan",
        "latitude": 59.3251,
        "longitude": 18.0711
      },
      {
        "id": 25,
        "name": "Abisko National Park",
        "latitude": 68.3555,
        "longitude": 18.7861
      }
    ]
  },
  {
    "id": "6",
    "name": "Tokyo",
    "spots": [
      {
        "id": "66",
        "name": "Tokyo Tower",
        "latitude": 35.6586,
        "longitude": 139.7454
      },
      {
        "id": 16,
        "name": "Sensoji Temple",
        "latitude": 35.7148,
        "longitude": 139.7967
      },
      {
        "id": 26,
        "name": "Imperial Palace",
        "latitude": 35.6852,
        "longitude": 139.7528
      },
      {
        "id": 36,
        "name": "Tokyo Skytree",
        "latitude": 35.7101,
        "longitude": 139.8107
      },
      {
        "id": 46,
        "name": "Shibuya Crossing",
        "latitude": 35.6595,
        "longitude": 139.7006
      }
    ]
  },
  {
    "id": "7",
    "name": "Italy",
    "spots": [
      {
        "id": "88",
        "name": "Colosseum",
        "latitude": 41.8902,
        "longitude": 12.4922
      },
      {
        "id": 18,
        "name": "Leaning Tower of Pisa",
        "latitude": 43.7229,
        "longitude": 10.3966
      },
      {
        "id": 28,
        "name": "St. Marks Square",
        "latitude": 45.4343,
        "longitude": 12.3388
      },
      {
        "id": 38,
        "name": "Duomo of Milan",
        "latitude": 45.4642,
        "longitude": 9.1919
      },
      {
        "id": 48,
        "name": "Uffizi Gallery",
        "latitude": 43.7687,
        "longitude": 11.2553
      },
      {
        "id": 58,
        "name": "Ponte Vecchio",
        "latitude": 43.7679,
        "longitude": 11.2531
      },
      {
        "id": 68,
        "name": "Vatican City",
        "latitude": 41.9029,
        "longitude": 12.4534
      },
      {
        "id": 78,
        "name": "Trevi Fountain",
        "latitude": 41.9009,
        "longitude": 12.4833
      },
      {
        "id": 88,
        "name": "Pantheon",
        "latitude": 41.8986,
        "longitude": 12.4769
      },
      { "id": 98, "name": "Pompeii", "latitude": 40.7462, "longitude": 14.5015 }
    ]
  },
  {
    "id": "8",
    "name": "Tokyo 2",
    "spots": [
      {
        "id": 9,
        "name": "Palacio de Bellas Artes",
        "latitude": 19.4353,
        "longitude": -99.1411
      },
      {
        "id": 19,
        "name": "Museo del Templo Mayor",
        "latitude": 19.4336,
        "longitude": -99.1319
      },
      {
        "id": 29,
        "name": "Zocalo",
        "latitude": 19.4326,
        "longitude": -99.1332
      },
      {
        "id": 39,
        "name": "Chapultepec Castle",
        "latitude": 19.4204,
        "longitude": -99.1817
      },
      {
        "id": 49,
        "name": "Basilica de Santa Maria de Guadalupe",
        "latitude": 19.4848,
        "longitude": -99.1177
      }
    ]
  },
  {
    "id": "900",
    "name": "London",
    "spots": [
      {
        "id": 100,
        "name": "Big Ben",
        "latitude": 51.5007,
        "longitude": -0.1246
      },
      {
        "id": 100,
        "name": "Tower Bridge",
        "latitude": 51.5055,
        "longitude": -0.0754
      },
      {
        "id": 200,
        "name": "Buckingham Palace",
        "latitude": 51.5014,
        "longitude": -0.1419
      },
      {
        "id": 300,
        "name": "London Eye",
        "latitude": 51.5033,
        "longitude": -0.1195
      },
      {
        "id": 400,
        "name": "British Museum",
        "latitude": 51.5194,
        "longitude": -0.1269
      }
    ]
  }
]
